{"data":[{"id":1,"img":"https://placeimg.com/1080/750","favorite":false,"title":"Rua Doutor Manoel Ayres Neto","district":"Parque Sul","city":"Teresina","state":"PI","postalCode":"64036-410","location":{"lat":-5.2021871,"lng":-42.7348691}},{"id":2,"img":"https://placeimg.com/1085/755","favorite":false,"title":"Quadra J Bloco 17","district":"Pedra Miúda","city":"Teresina","state":"PI","postalCode":"64036-410","location":{"lat":-5.2021151,"lng":-42.7148691}},{"id":3,"img":"https://placeimg.com/1089/759","favorite":false,"title":"Rua Barcarena","district":"Esplanada","city":"Teresina","state":"PI","postalCode":"64036-410","location":{"lat":-5.1921871,"lng":-42.7248691}},{"id":4,"img":"","favorite":false,"title":"Alberto Saddi","district":"Liberdade","city":"Rondonópolis","state":"MT","postalCode":"64036-410","location":{"lat":-5.1821871,"lng":-42.7548691}},{"title":"Quadra J","postalCode":"64038-130","state":"PI","district":"Pedra Miúda","city":"Teresina","location":{"lat":-5.1065263,"lng":-42.732751},"id":5}]}